[{"pk": 2, "model": "event.schedule", "fields": {"date": "2012-01-28", "name": "Counter Crawl #3"}}, {"pk": 1, "model": "event.schedule", "fields": {"date": "2011-07-14", "name": "Counter Crawl #1"}}, {"pk": 6, "model": "event.event", "fields": {"name": "", "schedule": 2, "location": 10, "starttime": "13:00:00", "date": "2012-01-28", "endtime": "15:00:00", "description": ""}}, {"pk": 7, "model": "event.event", "fields": {"name": "", "schedule": 2, "location": 11, "starttime": "15:00:00", "date": "2012-01-28", "endtime": "16:00:00", "description": ""}}, {"pk": 8, "model": "event.event", "fields": {"name": "", "schedule": 2, "location": 3, "starttime": "17:38:00", "date": "2012-01-28", "endtime": "19:38:00", "description": ""}}, {"pk": 9, "model": "event.event", "fields": {"name": "", "schedule": 2, "location": 13, "starttime": "19:45:00", "date": "2012-01-28", "endtime": "22:00:00", "description": ""}}, {"pk": 10, "model": "event.event", "fields": {"name": "", "schedule": 2, "location": 12, "starttime": "22:00:00", "date": "2012-01-28", "endtime": "23:59:00", "description": ""}}, {"pk": 1, "model": "event.event", "fields": {"name": "", "schedule": 1, "location": 8, "starttime": "12:00:00", "date": null, "endtime": "13:00:00", "description": ""}}, {"pk": 2, "model": "event.event", "fields": {"name": "", "schedule": 1, "location": 2, "starttime": "13:00:00", "date": null, "endtime": "15:00:00", "description": ""}}, {"pk": 3, "model": "event.event", "fields": {"name": "", "schedule": 1, "location": 4, "starttime": "15:00:00", "date": null, "endtime": "18:00:00", "description": ""}}, {"pk": 4, "model": "event.event", "fields": {"name": "", "schedule": 1, "location": 6, "starttime": "18:00:00", "date": null, "endtime": "21:00:00", "description": ""}}, {"pk": 5, "model": "event.event", "fields": {"name": "", "schedule": 1, "location": 7, "starttime": "21:00:00", "date": null, "endtime": "23:59:00", "description": ""}}, {"pk": 1, "model": "geo.city", "fields": {"latlon": "29.76019,-95.36932999999999", "state": "TX", "name": "Houston"}}, {"pk": 1, "model": "geo.location", "fields": {"latlon": "29.761885,-95.36140390000003", "city": 1, "name": "notsuoH", "address2": "", "address": "314 Main Street", "zip_code": 77002}}, {"pk": 2, "model": "geo.location", "fields": {"latlon": "29.7662475,-95.3771605", "city": 1, "name": "MECA", "address2": "", "address": "1900 Kane Street", "zip_code": 77007}}, {"pk": 3, "model": "geo.location", "fields": {"latlon": "29.758221,-95.3503981", "city": 1, "name": "Donkey Paw", "address2": "", "address": "2010 Commerce Street", "zip_code": 77002}}, {"pk": 4, "model": "geo.location", "fields": {"latlon": "29.758221,-95.3503981", "city": 1, "name": "2020 Commerce Street", "address2": "", "address": "2020 Commerce Street", "zip_code": 77002}}, {"pk": 5, "model": "geo.location", "fields": {"latlon": "29.7528279,-95.34143670000003", "city": 1, "name": "The Rail Yard", "address2": "", "address": "3100 Commerce Street", "zip_code": 77002}}, {"pk": 6, "model": "geo.location", "fields": {"latlon": "29.768376,-95.352552", "city": 1, "name": "Ponderosa", "address2": "", "address": "1503 Nance St.", "zip_code": 77002}}, {"pk": 7, "model": "geo.location", "fields": {"latlon": "29.7743594,-95.3508324", "city": 1, "name": "The Foundry", "address2": "", "address": "1712 Burnett", "zip_code": 77002}}, {"pk": 8, "model": "geo.location", "fields": {"latlon": "29.734326,-95.39007700000002", "city": 1, "name": "Sedition Books", "address2": "", "address": "901 Richmond Ave.", "zip_code": 77006}}, {"pk": 9, "model": "geo.location", "fields": {"latlon": "29.7678185,-95.32408650000002", "city": 1, "name": "Last Organic Outpost", "address2": "", "address": "711 N. Emile Street", "zip_code": 77020}}, {"pk": 10, "model": "geo.location", "fields": {"latlon": "29.7500452,-95.34240449999999", "city": 1, "name": "El Rincon Social", "address2": "", "address": "3210 Preston St", "zip_code": 77003}}, {"pk": 11, "model": "geo.location", "fields": {"latlon": "29.7523549,-95.34064389999998", "city": 1, "name": "Green Recycling", "address2": "", "address": "3210 Commerce Street", "zip_code": 77002}}, {"pk": 12, "model": "geo.location", "fields": {"latlon": "29.76019,-95.36932999999999", "city": 1, "name": "War'Hous", "address2": "", "address": "4715 Main Street", "zip_code": 77002}}, {"pk": 13, "model": "geo.location", "fields": {"latlon": "29.77635,-95.35405000000003", "city": 1, "name": "Jenner House", "address2": "", "address": "1619 Chapman", "zip_code": 77007}}, {"pk": 1, "model": "artist.artist", "fields": {"name": "Demonic Hen"}}, {"pk": 2, "model": "artist.artist", "fields": {"name": "Ancient Astronaut Theory"}}, {"pk": 1, "model": "artist.performance", "fields": {"artist": 1, "medium": "music", "order": 9999, "event": 6, "location": 10}}, {"pk": 2, "model": "artist.performance", "fields": {"artist": 2, "medium": "music", "order": 9999, "event": 6, "location": 10}}, {"pk": 1, "model": "content.page", "fields": {"name": "header"}}, {"pk": 1, "model": "content.designimage", "fields": {"src": "uploads/designphotos/cc2-scaled_1.png", "name": "logo", "credit": "", "credit_url": "", "alt_text": "", "context": "header-logo", "page": 1}}]